{
  "abudhabi": {
    "subtype": "city",
    "name_en": "Abu Dhabi",
    "iso_code": null,
    "parent": "ae",
    "info_link": "https://en.wikipedia.org/wiki/Abu_Dhabi",
    "tlds": [
      "abudhabi",
      "xn--mgbca7dzdo"
    ],
    "coordinates": {
      "lat": 24.45111,
      "lon": 54.39694
    }
  },
  "africa": {
    "subtype": "supranational",
    "name_en": "Africa",
    "iso_code": null,
    "parent": null,
    "info_link": "https://en.wikipedia.org/wiki/Africa",
    "tlds": [
      "africa"
    ],
    "coordinates": {
      "lat": 21.09375,
      "lon": 7.1881
    }
  },
  "alsace": {
    "subtype": "subdivision",
    "name_en": "Alsace",
    "iso_code": null,
    "parent": "fr",
    "info_link": "https://en.wikipedia.org/wiki/Alsace",
    "tlds": [
      "alsace"
    ],
    "coordinates": {
      "lat": 48.5,
      "lon": 7.5
    }
  },
  "amsterdam": {
    "subtype": "city",
    "name_en": "Amsterdam",
    "iso_code": null,
    "parent": "nl",
    "info_link": "https://en.wikipedia.org/wiki/Amsterdam",
    "tlds": [
      "amsterdam"
    ],
    "coordinates": {
      "lat": 52.36667,
      "lon": 4.88333
    }
  },
  "asia": {
    "subtype": "supranational",
    "name_en": "Asia",
    "iso_code": null,
    "parent": null,
    "info_link": "https://en.wikipedia.org/wiki/Asia",
    "tlds": [
      "asia"
    ],
    "coordinates": {
      "lat": 43.68111,
      "lon": 87.33111
    }
  },
  "barcelona": {
    "subtype": "city",
    "name_en": "Barcelona",
    "iso_code": null,
    "parent": "es",
    "info_link": "https://en.wikipedia.org/wiki/Barcelona",
    "tlds": [
      "barcelona",
      "bcn"
    ],
    "coordinates": {
      "lat": 41.3825,
      "lon": 2.17694
    }
  },
  "basque-country": {
    "subtype": "subdivision",
    "name_en": "Basque Country",
    "iso_code": "ES-PV",
    "parent": "es",
    "info_link": "https://en.wikipedia.org/wiki/Basque_Country_(autonomous_community)",
    "tlds": [
      "eus"
    ],
    "coordinates": {
      "lat": 42.98333,
      "lon": -2.61667
    }
  },
  "bayern": {
    "subtype": "subdivision",
    "name_en": "Bavaria",
    "iso_code": "DE-BY",
    "parent": "de",
    "info_link": "https://en.wikipedia.org/wiki/Bavaria",
    "tlds": [
      "bayern"
    ],
    "coordinates": {
      "lat": 49.07861,
      "lon": 11.38556
    }
  },
  "berlin": {
    "subtype": "city",
    "name_en": "Berlin",
    "iso_code": null,
    "parent": "de",
    "info_link": "https://en.wikipedia.org/wiki/Berlin",
    "tlds": [
      "berlin"
    ],
    "coordinates": {
      "lat": 52.51667,
      "lon": 13.38333
    }
  },
  "boston": {
    "subtype": "city",
    "name_en": "Boston",
    "iso_code": null,
    "parent": "us",
    "info_link": "https://en.wikipedia.org/wiki/Boston",
    "tlds": [
      "boston"
    ],
    "coordinates": {
      "lat": 42.36028,
      "lon": -71.05778
    }
  },
  "brittany": {
    "subtype": "subdivision",
    "name_en": "Brittany",
    "iso_code": "FR-BRE",
    "parent": "fr",
    "info_link": "https://en.wikipedia.org/wiki/Brittany",
    "tlds": [
      "bzh"
    ],
    "coordinates": {
      "lat": 48.0,
      "lon": -3.0
    }
  },
  "brussels": {
    "subtype": "city",
    "name_en": "Brussels",
    "iso_code": null,
    "parent": "be",
    "info_link": "https://en.wikipedia.org/wiki/Brussels",
    "tlds": [
      "brussels"
    ],
    "coordinates": {
      "lat": 50.84667,
      "lon": 4.3525
    }
  },
  "budapest": {
    "subtype": "city",
    "name_en": "Budapest",
    "iso_code": null,
    "parent": "hu",
    "info_link": "https://en.wikipedia.org/wiki/Budapest",
    "tlds": [
      "budapest"
    ]
  },
  "capetown": {
    "subtype": "city",
    "name_en": "Cape Town",
    "iso_code": null,
    "parent": "za",
    "info_link": "https://en.wikipedia.org/wiki/Cape_Town",
    "tlds": [
      "capetown"
    ],
    "coordinates": {
      "lat": -33.92528,
      "lon": 18.42389
    }
  },
  "catalonia": {
    "subtype": "subdivision",
    "name_en": "Catalonia",
    "iso_code": "ES-CT",
    "parent": "es",
    "info_link": "https://en.wikipedia.org/wiki/Catalonia",
    "tlds": [
      "cat"
    ],
    "coordinates": {
      "lat": 41.85,
      "lon": 1.56667
    }
  },
  "cologne": {
    "subtype": "city",
    "name_en": "Cologne",
    "iso_code": null,
    "parent": "de",
    "info_link": "https://en.wikipedia.org/wiki/Cologne",
    "tlds": [
      "cologne",
      "koeln"
    ],
    "coordinates": {
      "lat": 50.94222,
      "lon": 6.95778
    }
  },
  "corsica": {
    "subtype": "subdivision",
    "name_en": "Corsica",
    "iso_code": "FR-20R",
    "parent": "fr",
    "info_link": "https://en.wikipedia.org/wiki/Corsica",
    "tlds": [
      "corsica"
    ],
    "coordinates": {
      "lat": 42.15,
      "lon": 9.08333
    }
  },
  "doha": {
    "subtype": "city",
    "name_en": "Doha",
    "iso_code": null,
    "parent": "qa",
    "info_link": "https://en.wikipedia.org/wiki/Doha",
    "tlds": [
      "doha"
    ]
  },
  "dubai": {
    "subtype": "city",
    "name_en": "Dubai",
    "iso_code": null,
    "parent": "ae",
    "info_link": "https://en.wikipedia.org/wiki/Dubai",
    "tlds": [
      "dubai"
    ],
    "coordinates": {
      "lat": 25.26972,
      "lon": 55.30944
    }
  },
  "durban": {
    "subtype": "city",
    "name_en": "Durban",
    "iso_code": null,
    "parent": "za",
    "info_link": "https://en.wikipedia.org/wiki/Durban",
    "tlds": [
      "durban"
    ],
    "coordinates": {
      "lat": -29.85833,
      "lon": 31.025
    }
  },
  "eu": {
    "subtype": "supranational",
    "name_en": "European Union",
    "iso_code": "EU",
    "parent": null,
    "info_link": "https://en.wikipedia.org/wiki/European_Union",
    "tlds": [
      "eu",
      "xn--e1a4c",
      "xn--qxa6a"
    ],
    "coordinates": {
      "lat": 50.11694,
      "lon": 9.24778
    }
  },
  "flanders": {
    "subtype": "subdivision",
    "name_en": "Flanders",
    "iso_code": "BE-VLG",
    "parent": "be",
    "info_link": "https://en.wikipedia.org/wiki/Flanders",
    "tlds": [
      "vlaanderen"
    ],
    "coordinates": {
      "lat": 51.0,
      "lon": 4.5
    }
  },
  "friesland": {
    "subtype": "subdivision",
    "name_en": "Friesland",
    "iso_code": "NL-FR",
    "parent": "nl",
    "info_link": "https://en.wikipedia.org/wiki/Friesland",
    "tlds": [
      "frl"
    ],
    "coordinates": {
      "lat": 53.20139,
      "lon": 5.8
    }
  },
  "galicia": {
    "subtype": "subdivision",
    "name_en": "Galicia",
    "iso_code": "ES-GA",
    "parent": "es",
    "info_link": "https://en.wikipedia.org/wiki/Galicia_(Spain)",
    "tlds": [
      "gal"
    ],
    "coordinates": {
      "lat": 42.8,
      "lon": -7.9
    }
  },
  "gent": {
    "subtype": "city",
    "name_en": "Ghent",
    "iso_code": null,
    "parent": "be",
    "info_link": "https://en.wikipedia.org/wiki/Ghent",
    "tlds": [
      "gent"
    ],
    "coordinates": {
      "lat": 51.05361,
      "lon": 3.72528
    }
  },
  "hamburg": {
    "subtype": "city",
    "name_en": "Hamburg",
    "iso_code": null,
    "parent": "de",
    "info_link": "https://en.wikipedia.org/wiki/Hamburg",
    "tlds": [
      "hamburg"
    ],
    "coordinates": {
      "lat": 53.55,
      "lon": 10.0
    }
  },
  "helsinki": {
    "subtype": "city",
    "name_en": "Helsinki",
    "iso_code": null,
    "parent": "fi",
    "info_link": "https://en.wikipedia.org/wiki/Helsinki",
    "tlds": [
      "helsinki"
    ],
    "coordinates": {
      "lat": 60.17083,
      "lon": 24.9375
    }
  },
  "istanbul": {
    "subtype": "city",
    "name_en": "Istanbul",
    "iso_code": null,
    "parent": "tr",
    "info_link": "https://en.wikipedia.org/wiki/Istanbul",
    "tlds": [
      "ist",
      "istanbul"
    ],
    "coordinates": {
      "lat": 41.01,
      "lon": 28.96028
    }
  },
  "joburg": {
    "subtype": "city",
    "name_en": "Johannesburg",
    "iso_code": null,
    "parent": "za",
    "info_link": "https://en.wikipedia.org/wiki/Johannesburg",
    "tlds": [
      "joburg"
    ],
    "coordinates": {
      "lat": -26.20436,
      "lon": 28.04164
    }
  },
  "kyoto": {
    "subtype": "city",
    "name_en": "Kyoto",
    "iso_code": null,
    "parent": "jp",
    "info_link": "https://en.wikipedia.org/wiki/Kyoto",
    "tlds": [
      "kyoto"
    ],
    "coordinates": {
      "lat": 35.01161,
      "lon": 135.76811
    }
  },
  "latin-america": {
    "subtype": "supranational",
    "name_en": "Latin America",
    "iso_code": null,
    "parent": null,
    "info_link": "https://en.wikipedia.org/wiki/Latin_America",
    "tlds": [
      "lat"
    ],
    "coordinates": {
      "lat": -1.10689,
      "lon": -68.09739
    }
  },
  "london": {
    "subtype": "city",
    "name_en": "London",
    "iso_code": null,
    "parent": "gb",
    "info_link": "https://en.wikipedia.org/wiki/London",
    "tlds": [
      "london"
    ],
    "coordinates": {
      "lat": 51.50722,
      "lon": -0.1275
    }
  },
  "madrid": {
    "subtype": "city",
    "name_en": "Madrid",
    "iso_code": null,
    "parent": "es",
    "info_link": "https://en.wikipedia.org/wiki/Madrid",
    "tlds": [
      "madrid"
    ],
    "coordinates": {
      "lat": 40.41694,
      "lon": -3.70333
    }
  },
  "melbourne": {
    "subtype": "city",
    "name_en": "Melbourne",
    "iso_code": null,
    "parent": "au",
    "info_link": "https://en.wikipedia.org/wiki/Melbourne",
    "tlds": [
      "melbourne"
    ],
    "coordinates": {
      "lat": -37.81417,
      "lon": 144.96306
    }
  },
  "miami": {
    "subtype": "city",
    "name_en": "Miami",
    "iso_code": null,
    "parent": "us",
    "info_link": "https://en.wikipedia.org/wiki/Miami",
    "tlds": [
      "miami"
    ],
    "coordinates": {
      "lat": 25.78333,
      "lon": -80.21667
    }
  },
  "moscow": {
    "subtype": "city",
    "name_en": "Moscow",
    "iso_code": null,
    "parent": "ru",
    "info_link": "https://en.wikipedia.org/wiki/Moscow",
    "tlds": [
      "moscow",
      "xn--80adxhks"
    ],
    "coordinates": {
      "lat": 55.75056,
      "lon": 37.6175
    }
  },
  "nagoya": {
    "subtype": "city",
    "name_en": "Nagoya",
    "iso_code": null,
    "parent": "jp",
    "info_link": "https://en.wikipedia.org/wiki/Nagoya",
    "tlds": [
      "nagoya"
    ],
    "coordinates": {
      "lat": 35.18139,
      "lon": 136.90639
    }
  },
  "north-rhine-westphalia": {
    "subtype": "subdivision",
    "name_en": "North Rhine-Westphalia",
    "iso_code": "DE-NW",
    "parent": "de",
    "info_link": "https://en.wikipedia.org/wiki/North_Rhine-Westphalia",
    "tlds": [
      "nrw"
    ],
    "coordinates": {
      "lat": 51.46667,
      "lon": 7.55
    }
  },
  "nyc": {
    "subtype": "city",
    "name_en": "New York City",
    "iso_code": null,
    "parent": "us",
    "info_link": "https://en.wikipedia.org/wiki/New_York_City",
    "tlds": [
      "nyc"
    ],
    "coordinates": {
      "lat": 40.71278,
      "lon": -74.00611
    }
  },
  "okinawa": {
    "subtype": "subdivision",
    "name_en": "Okinawa",
    "iso_code": "JP-47",
    "parent": "jp",
    "info_link": "https://en.wikipedia.org/wiki/Okinawa_Prefecture",
    "tlds": [
      "okinawa"
    ],
    "coordinates": {
      "lat": 26.21222,
      "lon": 127.68083
    }
  },
  "osaka": {
    "subtype": "city",
    "name_en": "Osaka",
    "iso_code": null,
    "parent": "jp",
    "info_link": "https://en.wikipedia.org/wiki/Osaka",
    "tlds": [
      "osaka"
    ],
    "coordinates": {
      "lat": 34.69375,
      "lon": 135.50211
    }
  },
  "paris": {
    "subtype": "city",
    "name_en": "Paris",
    "iso_code": null,
    "parent": "fr",
    "info_link": "https://en.wikipedia.org/wiki/Paris",
    "tlds": [
      "paris"
    ],
    "coordinates": {
      "lat": 48.85667,
      "lon": 2.35222
    }
  },
  "quebec": {
    "subtype": "subdivision",
    "name_en": "Quebec",
    "iso_code": "CA-QC",
    "parent": "ca",
    "info_link": "https://en.wikipedia.org/wiki/Quebec",
    "tlds": [
      "quebec"
    ],
    "coordinates": {
      "lat": 52.0,
      "lon": -72.0
    }
  },
  "rio": {
    "subtype": "city",
    "name_en": "Rio de Janeiro",
    "iso_code": null,
    "parent": "br",
    "info_link": "https://en.wikipedia.org/wiki/Rio_de_Janeiro",
    "tlds": [
      "rio"
    ],
    "coordinates": {
      "lat": -22.91111,
      "lon": -43.20556
    }
  },
  "ruhr": {
    "subtype": "subdivision",
    "name_en": "Ruhr",
    "iso_code": null,
    "parent": "de",
    "info_link": "https://en.wikipedia.org/wiki/Ruhr",
    "tlds": [
      "ruhr"
    ],
    "coordinates": {
      "lat": 51.5,
      "lon": 7.5
    }
  },
  "ryukyu": {
    "subtype": "subdivision",
    "name_en": "Ryukyu Islands",
    "iso_code": null,
    "parent": "jp",
    "info_link": "https://en.wikipedia.org/wiki/Ryukyu_Islands",
    "tlds": [
      "ryukyu"
    ],
    "coordinates": {
      "lat": 26.33281,
      "lon": 127.74902
    }
  },
  "saarland": {
    "subtype": "subdivision",
    "name_en": "Saarland",
    "iso_code": "DE-SL",
    "parent": "de",
    "info_link": "https://en.wikipedia.org/wiki/Saarland",
    "tlds": [
      "saarland"
    ],
    "coordinates": {
      "lat": 49.37715,
      "lon": 6.87838
    }
  },
  "scotland": {
    "subtype": "subdivision",
    "name_en": "Scotland",
    "iso_code": "GB-SCT",
    "parent": "gb",
    "info_link": "https://en.wikipedia.org/wiki/Scotland",
    "tlds": [
      "scot"
    ],
    "coordinates": {
      "lat": 57.0,
      "lon": -5.0
    }
  },
  "stockholm": {
    "subtype": "city",
    "name_en": "Stockholm",
    "iso_code": null,
    "parent": "se",
    "info_link": "https://en.wikipedia.org/wiki/Stockholm",
    "tlds": [
      "stockholm"
    ],
    "coordinates": {
      "lat": 59.32944,
      "lon": 18.06861
    }
  },
  "sydney": {
    "subtype": "city",
    "name_en": "Sydney",
    "iso_code": null,
    "parent": "au",
    "info_link": "https://en.wikipedia.org/wiki/Sydney",
    "tlds": [
      "sydney"
    ],
    "coordinates": {
      "lat": -33.86778,
      "lon": 151.21
    }
  },
  "taipei": {
    "subtype": "city",
    "name_en": "Taipei",
    "iso_code": null,
    "parent": "tw",
    "info_link": "https://en.wikipedia.org/wiki/Taipei",
    "tlds": [
      "taipei"
    ],
    "coordinates": {
      "lat": 25.0375,
      "lon": 121.5625
    }
  },
  "tatarstan": {
    "subtype": "subdivision",
    "name_en": "Tatarstan",
    "iso_code": "RU-TA",
    "parent": "ru",
    "info_link": "https://en.wikipedia.org/wiki/Tatarstan",
    "tlds": [
      "tatar"
    ],
    "coordinates": {
      "lat": 55.55,
      "lon": 50.93333
    }
  },
  "tokyo": {
    "subtype": "city",
    "name_en": "Tokyo",
    "iso_code": null,
    "parent": "jp",
    "info_link": "https://en.wikipedia.org/wiki/Tokyo",
    "tlds": [
      "tokyo"
    ],
    "coordinates": {
      "lat": 35.68944,
      "lon": 139.69167
    }
  },
  "tyrol": {
    "subtype": "subdivision",
    "name_en": "Tyrol",
    "iso_code": "AT-7",
    "parent": "at",
    "info_link": "https://en.wikipedia.org/wiki/Tyrol_(state)",
    "tlds": [
      "tirol"
    ],
    "coordinates": {
      "lat": 47.26667,
      "lon": 11.4
    }
  },
  "vegas": {
    "subtype": "city",
    "name_en": "Las Vegas",
    "iso_code": null,
    "parent": "us",
    "info_link": "https://en.wikipedia.org/wiki/Las_Vegas",
    "tlds": [
      "vegas"
    ],
    "coordinates": {
      "lat": 36.16722,
      "lon": -115.14861
    }
  },
  "wales": {
    "subtype": "subdivision",
    "name_en": "Wales",
    "iso_code": "GB-WLS",
    "parent": "gb",
    "info_link": "https://en.wikipedia.org/wiki/Wales",
    "tlds": [
      "cymru",
      "wales"
    ],
    "coordinates": {
      "lat": 52.35,
      "lon": -3.63333
    }
  },
  "wien": {
    "subtype": "city",
    "name_en": "Vienna",
    "iso_code": null,
    "parent": "at",
    "info_link": "https://en.wikipedia.org/wiki/Vienna",
    "tlds": [
      "wien"
    ],
    "coordinates": {
      "lat": 48.20833,
      "lon": 16.3725
    }
  },
  "yokohama": {
    "subtype": "city",
    "name_en": "Yokohama",
    "iso_code": null,
    "parent": "jp",
    "info_link": "https://en.wikipedia.org/wiki/Yokohama",
    "tlds": [
      "yokohama"
    ],
    "coordinates": {
      "lat": 35.45033,
      "lon": 139.63422
    }
  },
  "zuerich": {
    "subtype": "city",
    "name_en": "Zurich",
    "iso_code": null,
    "parent": "ch",
    "info_link": "https://en.wikipedia.org/wiki/Zurich",
    "tlds": [
      "zuerich"
    ],
    "coordinates": {
      "lat": 47.37444,
      "lon": 8.54111
    }
  }
}
